     2.11           OBSERVATION DATA    G (GPS)             RINEX VERSION / TYPE
teqc  2017Jul18     gpsops              20171014 00:27:15UTCPGM / RUN BY / DATE
Linux 2.6.32-573.12.1.x86_64|x86_64|gcc -static|Linux 64|=+ COMMENT
BIT 2 OF LLI FLAGS DATA COLLECTED UNDER A/S CONDITION       COMMENT
CRAO                                                        MARKER NAME
12337M002                                                   MARKER NUMBER
Reilnger, Rob       MIT                                     OBSERVER / AGENCY
UC120031621         ASHTECH UZ-12       CQ00                REC # / TYPE / VERS
CR520003501         ASH701945C_M    SCIS                    ANT # / TYPE
  3783897.0146  2551404.4833  4441264.3100                  APPROX POSITION XYZ
        0.0800        0.0000        0.0000                  ANTENNA: DELTA H/E/N
     1     1                                                WAVELENGTH FACT L1/2
     7    L1    L2    P1    P2    C1    S1    S2            # / TYPES OF OBSERV
    30.0000                                                 INTERVAL
                                                            COMMENT
This data is provided as a public service by NASA/JPL.      COMMENT
No warranty is expressed or implied regarding suitability   COMMENT
for use.  For further information, contact:                 COMMENT
Dave Stowers, NASA/JPL m/s 238-600                          COMMENT
4800 Oak Grove Drive, Pasadena CA 91109 USA                 COMMENT
                                                            COMMENT
Forced Modulo Decimation to 30 seconds                      COMMENT
 SNR is mapped to RINEX snr flag value [0-9]                COMMENT
  L1 & L2: min(max(int(snr_dBHz/6), 0), 9)                  COMMENT
pseudorange smoothing corrections not applied               COMMENT
  2017    10    13     0     0    0.0000000     GPS         TIME OF FIRST OBS
                                                            END OF HEADER
 17 10 13  0  0  0.0000000  0  7G15G17G19G13G12G06G24
  -9088262.48648  -6965811.75947  22857312.0464   22857315.0784   22857312.173
        50.0004         45.0004
 -15258512.87348 -11832751.04848  22003222.3504   22003223.8184   22003221.829
        53.0004         48.0004
 -22940257.31349 -17797309.70548  20502795.7624   20502796.0424   20502796.686
        55.0004         50.0004
  -6717767.04047  -4947978.21146  23557107.0304   23557108.2664   23557106.347
        44.0004         39.0004
 -14250638.27448 -11015494.17047  22000867.1534   22000868.7274   22000866.656
        51.0004         46.0004
  -4530519.61047  -3462400.80346  23443102.8984   23443108.9384   23443102.924
        45.0004         41.0004
 -20775882.47049 -16134629.31848  20759460.3324   20759464.1174   20759459.900
        56.0004         51.0004
 17 10 13  0  0 30.0000000  0  7G15G17G19G13G12G06G24
  -9005378.26448  -6901226.66547  22873084.9114   22873086.0554   22873085.242
        50.0004         45.0004
 -15195487.46948 -11783640.33748  22015216.3744   22015217.0924   22015216.297
        53.0004         48.0004
 -22922073.74549 -17783140.68148  20506255.5654   20506255.9544   20506256.744
        55.0004         50.0004
  -6605990.21047  -4860879.37146  23578375.7754   23578378.0944   23578375.827
        44.0004         39.0004
 -14323320.57848 -11072129.72647  21987036.6064   21987037.9274   21987036.144
        51.0004         46.0004
  -4616829.83547  -3529655.51546  23426680.1694   23426684.7694   23426679.884
        45.0004         41.0004
 -20820298.16649 -16169238.95148  20751007.9384   20751012.1744   20751007.982
        56.0004         51.0004
 17 10 13  0  1  0.0000000  0  7G15G17G19G13G12G06G24
  -8922200.34048  -6836412.72747  22888913.9674   22888915.3304   22888913.519
        49.0004         45.0004
 -15132085.19648 -11734235.96848  22027281.0644   22027282.2714   22027280.734
        53.0004         48.0004
 -22903262.05549 -17768482.21648  20509835.6354   20509836.1784   20509836.908
        55.0004         51.0004
  -6494086.25047  -4773681.50846  23599670.5374   23599675.1514   23599671.094
        43.0004         39.0004
 -14395778.85748 -11128590.71247  21973248.2544   21973248.9424   21973247.455
        51.0004         46.0004
  -4702904.71147  -3596726.86046  23410301.1504   23410303.2134   23410301.044
        45.0004         41.0004
 -20864299.47749 -16203525.68848  20742635.1094   20742638.6514   20742634.636
        56.0004         51.0004
 17 10 13  0  1 30.0000000  0  7G15G17G19G13G12G06G24
  -8838727.45048  -6771368.93047  22904798.1834   22904799.2094   22904797.619
        49.0004         45.0004
 -15068303.76648 -11684536.15248  22039418.1424   22039418.7914   22039417.737
        53.0004         48.0004
 -22883819.45049 -17753332.12748  20513535.5374   20513535.4464   20513536.417
        55.0004         50.0004
  -6382053.70747  -4686383.42546  23620988.5704   23620992.3144   23620989.205
        43.0004         38.0004
 -14468008.76848 -11184873.76047  21959502.7914   21959504.6194   21959504.035
        51.0004         46.0004
  -4788736.90147  -3663609.05046  23393966.4314   23393971.6774   23393965.705
        46.0004         41.0004
 -20907879.86249 -16237484.43248  20734342.0854   20734345.4394   20734342.200
        56.0004         51.0004
 17 10 13  0  2  0.0000000  0  7G15G17G19G13G12G06G24
  -8754965.68448  -6706100.03547  22920735.5284   22920738.2634   22920735.654
        49.0004         44.0004
 -15004148.46148 -11634545.01048  22051626.7764   22051627.8694   22051626.484
        53.0004         48.0004
 -22863750.43649 -17737693.93148  20517354.0334   20517354.8344   20517355.188
        55.0004         50.0004
  -6269899.34947  -4598990.43246  23642332.3254   23642333.4724   23642332.481
        43.0004         38.0004
 -14540011.96048 -11240980.14347  21945801.7404   21945802.0914   21945801.264
        51.0004         46.0004
  -4874326.53047  -3730302.25047  23377681.3504   23377686.0834   23377680.017
        46.0004         42.0004
 -20951040.83249 -16271116.36648  20726128.9594   20726132.1654   20726128.805
        56.0004         51.0004
 17 10 13  0  2 30.0000000  0  7G15G17G19G13G12G06G24
  -8670919.06348  -6640609.16647  22936730.2934   22936732.9434   22936729.169
        49.0004         44.0004
 -14939622.57948 -11584265.09248  22063905.3934   22063905.8204   22063905.712
        52.0004         48.0004
 -22843057.35549 -17721569.44748  20521292.1434   20521292.7454   20521293.203
        55.0004         51.0004
  -6157626.94047  -4511505.43846  23663697.8874   23663699.3844   23663698.912
        43.0004         39.0004
 -14611789.55148 -11296910.73347  21932142.8904   21932142.8034   21932143.123
        51.0004         46.0004
  -4959671.42347  -3796804.74847  23361439.3994   23361444.1644   23361438.998
        47.0004         42.0004
 -20993782.76449 -16304421.77348  20717994.9674   20717998.9044   20717994.829
        56.0004         51.0004
 17 10 13  0  3  0.0000000  0  7G15G17G19G13G12G06G24
  -8586583.77148  -6574893.36047  22952779.3264   22952780.2444   22952779.015
        49.0004         44.0004
 -14874722.41448 -11533693.53548  22076255.7214   22076256.5834   22076255.330
        52.0004         48.0004
 -22821735.06949 -17704954.66548  20525349.6064   20525349.9724   20525350.743
        55.0004         51.0004
  -6045233.72847  -4423926.31146  23685086.7494   23685087.1374   23685085.138
        44.0004         39.0004
 -14683334.93648 -11352660.36147  21918527.7344   21918529.1184   21918528.553
        51.0004         46.0004
  -5044762.33147  -3863109.32946  23345245.8334   23345250.5804   23345244.920
        46.0004         41.0004
 -21036097.01149 -16337393.91648  20709942.5904   20709946.5484   20709943.023
        56.0004         51.0004
 17 10 13  0  3 30.0000000  0  7G15G17G19G13G12G06G24
  -8501967.46348  -6508958.60647  22968881.7834   22968883.3974   22968881.210
        49.0004         44.0004
 -14809454.66948 -11482835.55248  22088675.4534   22088676.7404   22088675.149
        52.0004         48.0004
 -22799789.30449 -17687854.07148  20529525.7434   20529526.2004   20529525.940
        55.0004         50.0004
  -5932725.77947  -4336257.76446  23706496.0494   23706497.2944   23706494.142
        44.0004         39.0004
 -14754652.96448 -11408232.85147  21904956.6674   21904957.9274   21904956.696
        51.0004         46.0004
  -5129600.81347  -3929217.26047  23329104.0684   23329108.4934   23329103.804
        46.0004         42.0004
 -21077986.85449 -16370035.34548  20701971.3284   20701975.6244   20701971.059
        56.0004         51.0004
 17 10 13  0  4  0.0000000  0  7G15G17G19G13G12G06G24
  -8417074.77548  -6442808.46847  22985035.8224   22985038.0144   22985034.748
        49.0004         44.0004
 -14743822.89148 -11431693.90848  22101164.9024   22101166.1844   22101164.903
        52.0004         48.0004
 -22777223.45849 -17670270.29848  20533819.8294   20533820.2054   20533820.365
        55.0004         50.0004
  -5820108.80647  -4248504.27446  23727925.5194   23727927.2294   23727924.094
        44.0004         39.0004
 -14825743.77348 -11463628.28147  21891429.0004   21891428.9974   21891428.440
        51.0004         46.0004
  -5214185.27047  -3995127.19646  23313005.0924   23313012.1274   23313005.281
        46.0004         41.0004
 -21119451.89449 -16402345.76948  20694080.9664   20694084.7904   20694080.759
        56.0004         52.0004
 17 10 13  0  4 30.0000000  0  7G15G17G19G13G12G06G24
  -8331904.99148  -6376442.41447  23001242.2234   23001244.4624   23001241.752
        49.0004         44.0004
 -14677826.06048 -11380267.81848  22113723.5404   22113724.9184   22113723.600
        53.0004         48.0004
 -22754035.02049 -17652201.37848  20538232.7724   20538232.4764   20538233.733
        55.0004         50.0004
  -5707381.95147  -4160665.17346  23749375.7184   23749377.1824   23749376.524
        44.0004         39.0004
 -14896603.17148 -11518843.38447  21877944.3894   21877944.9344   21877944.685
        51.0004         46.0004
  -5298508.94047  -4060833.94447  23296961.5624   23296966.2864   23296961.836
        46.0004         42.0004
 -21160486.67649 -16434320.92348  20686272.5774   20686276.2684   20686272.353
        56.0004         52.0004
 17 10 13  0  5  0.0000000  0  7G15G17G19G13G12G06G24
  -8246461.89748  -6309863.41247  23017502.1314   23017505.3284   23017501.686
        49.0004         44.0004
 -14611467.55948 -11328559.88048  22126351.5854   22126352.1774   22126351.630
        52.0004         48.0004
 -22730226.83349 -17633649.53248  20542763.0844   20542763.2684   20542764.263
        55.0004         50.0004
  -5594548.68447  -4072743.16646  23770847.8494   23770848.6834   23770848.366
        44.0004         39.0004
 -14967232.30948 -11573879.06347  21864503.5224   21864504.9224   21864503.257
        51.0004         46.0004
  -5382569.91447  -4126336.00947  23280964.1274   23280969.5354   23280964.324
        46.0004         42.0004
 -21201091.58549 -16465961.11948  20678545.3124   20678549.5634   20678545.028
        56.0004         52.0004
 17 10 13  0  5 30.0000000  0  7G15G17G19G13G12G06G24
  -8160749.19548  -6243074.30547  23033813.9894   23033814.9374   23033814.305
        49.0004         44.0004
 -14544749.78648 -11276572.00147  22139047.0304   22139048.0564   22139046.820
        52.0004         47.0004
 -22705800.69549 -17614616.17348  20547410.7784   20547411.6394   20547411.553
        55.0004         50.0004
  -5481612.99447  -3984741.32546  23792338.3124   23792340.7274   23792337.393
        43.0004         38.0004
 -15037631.70948 -11628735.74147  21851106.9134   21851108.3464   21851107.932
        51.0004         46.0004
  -5466365.79847  -4191631.47146  23265017.7544   23265023.7774   23265016.908
        46.0004         41.0004
 -21241265.48049 -16497265.45448  20670900.7234   20670904.4414   20670900.720
        56.0004         52.0004
 17 10 13  0  6  0.0000000  0  7G15G17G19G13G12G06G24
  -8074768.00948  -6176076.00647  23050173.6214   23050176.6184   23050173.043
        49.0004         44.0004
 -14477673.62348 -11224304.86047  22151812.0984   22151811.8844   22151812.441
        52.0004         47.0004
 -22680756.39849 -17595101.14048  20552176.9094   20552177.4284   20552178.118
        55.0004         50.0004
  -5368576.14447  -3896660.66946  23813848.1094   23813850.7844   23813847.455
        43.0004         38.0004
 -15107798.71948 -11683411.33447  21837755.4444   21837756.1554   21837755.454
        51.0004         46.0004
  -5549891.53447  -4256716.46747  23249124.4714   23249128.5734   23249124.627
        46.0004         42.0004
 -21281004.01749 -16528230.55348  20663338.5254   20663342.4114   20663338.787
        56.0004         52.0004
 17 10 13  0  6 30.0000000  0  7G15G17G19G13G12G06G24
  -7988523.81248  -6108872.72747  23066586.1564   23066587.5124   23066585.917
        49.0004         44.0004
 -14410244.01648 -11171762.29947  22164643.3344   22164643.7834   22164642.972
        52.0004         47.0004
 -22655098.20349 -17575107.73848  20557059.8714   20557059.7744   20557061.067
        55.0004         50.0004
  -5255443.48047  -3808505.36446  23835377.1724   23835379.3254   23835377.053
        43.0004         39.0004
 -15177735.67648 -11737907.65547  21824446.8604   21824447.8514   21824447.327
        51.0004         46.0004
  -5633147.04947  -4321590.88547  23233281.2854   23233286.5034   23233280.544
        47.0004         42.0004
 -21320308.21049 -16558857.20448  20655859.2484   20655863.2274   20655858.958
        56.0004         52.0004
 17 10 13  0  7  0.0000000  0  7G15G17G19G13G12G06G24
  -7902017.86548  -6041465.52947  23083048.5564   23083050.7634   23083047.609
        49.0004         44.0004
 -14342461.41448 -11118944.68247  22177540.8434   22177542.5204   22177541.382
        52.0004         47.0004
 -22628825.70649 -17554635.65748  20562058.9274   20562059.2894   20562059.964
        55.0004         50.0004
  -5142216.28547  -3720276.37546  23856923.5644   23856924.1494   23856924.168
        43.0004         39.0004
 -15247440.20048 -11792222.86047  21811182.2654   21811183.6094   21811181.771
        51.0004         46.0004
  -5716127.32047  -4386250.83547  23217489.6534   23217496.3804   23217488.517
        47.0004         42.0004
 -21359176.34649 -16589144.07148  20648463.1514   20648466.9054   20648463.254
        57.0004         52.0004
 17 10 13  0  7 30.0000000  0  7G15G17G19G13G12G06G24
  -7815252.37048  -5973856.06647  23099558.3814   23099560.0204   23099558.354
        49.0004         44.0004
 -14274327.18348 -11065853.07747  22190507.9184   22190507.0994   22190507.451
        52.0004         47.0004
 -22601939.92149 -17533685.68448  20567174.7264   20567175.7574   20567175.653
        55.0004         50.0004
  -5028897.72747  -3631976.18946  23878487.4684   23878489.0164   23878486.070
        43.0004         39.0004
 -15316911.75148 -11846356.53147  21797962.1344   21797962.9434   21797962.223
        51.0004         46.0004
  -5798828.65447  -4450693.44747  23201752.8484   23201757.2174   23201753.090
        46.0004         42.0004
 -21397604.89549 -16619088.40148  20641150.0694   20641154.1714   20641149.608
        57.0004         52.0004
 17 10 13  0  8  0.0000000  0  7G15G17G19G13G12G06G24
  -7728233.14948  -5906048.91047  23116117.7274   23116119.9004   23116117.668
        49.0004         44.0004
 -14205846.85148 -11012491.78047  22203538.5884   22203538.9504   22203537.785
        52.0004         47.0004
 -22574445.19649 -17512261.22348  20572407.2304   20572407.7894   20572407.926
        55.0004         50.0004
  -4915492.40447  -3543608.40746  23900067.5754   23900069.4474   23900067.594
        43.0004         39.0004
 -15386152.17248 -11900310.07547  21784786.4344   21784787.4954   21784785.729
        51.0004         46.0004
  -5881250.82947  -4514918.50147  23186068.0464   23186073.1874   23186069.169
        47.0004         42.0004
 -21435595.70749 -16648691.63048  20633920.9954   20633924.9494   20633920.493
        57.0004         52.0004
 17 10 13  0  8 30.0000000  0  7G15G17G19G13G12G06G24
  -7640959.81848  -5838043.73447  23132726.4624   23132727.5374   23132726.032
        49.0004         44.0004
 -14137019.17148 -10958859.81847  22216636.1264   22216637.3804   22216635.676
        52.0004         47.0004
 -22546339.85949 -17490360.95748  20577755.2464   20577756.1384   20577756.088
        55.0004         50.0004
  -4801999.99947  -3455172.78646  23921662.7984   23921665.4234   23921663.223
        43.0004         38.0004
 -15455158.00748 -11954080.85647  21771654.2664   21771656.4624   21771654.785
        51.0004         46.0004
  -5963387.46147  -4578921.07447  23170438.1054   23170443.1844   23170437.562
        47.0004         42.0004
 -21473143.45749 -16677949.61648  20626775.6924   20626779.7214   20626775.411
        57.0004         52.0004
 17 10 13  0  9  0.0000000  0  7G15G17G19G13G12G06G24
  -7553435.66248  -5769843.10147  23149380.6664   23149382.6774   23149380.364
        49.0004         44.0004
 -14067846.70248 -10904959.20847  22229798.8384   22229799.5854   22229799.200
        52.0004         47.0004
 -22517625.73449 -17467986.31448  20583219.3644   20583219.9484   20583220.555
        55.0004         50.0004
  -4688424.49647  -3366672.40146  23943275.8884   23943279.3334   23943277.198
        43.0004         38.0004
 -15523929.12048 -12007668.74547  21758568.1374   21758569.8954   21758568.133
        51.0004         46.0004
  -6045235.88247  -4642699.06646  23154863.4644   23154867.2524   23154862.407
        46.0004         41.0004
 -21510246.87149 -16706861.37248  20619715.0204   20619719.4044   20619714.792
        57.0004         52.0004
 17 10 13  0  9 30.0000000  0  7G15G17G19G13G12G06G24
  -7465665.23248  -5701450.56147  23166083.1174   23166084.5554   23166084.158
        49.0004         44.0004
 -13998333.42848 -10850793.01647  22243026.1684   22243027.8854   22243026.635
        52.0004         47.0004
 -22488305.81049 -17445139.61648  20588798.9864   20588799.2014   20588799.856
        55.0004         50.0004
  -4574769.67947  -3278110.22746  23964904.8964   23964906.8754   23964905.942
        42.0004         38.0004
 -15592466.71248 -12061074.65247  21745525.7404   21745526.2984   21745525.845
        51.0004         46.0004
  -6126794.61547  -4706251.32347  23139343.3574   23139347.3814   23139343.014
        46.0004         42.0004
 -21546905.98849 -16735426.91548  20612739.1954   20612743.0954   20612738.782
        57.0004         52.0004
 17 10 13  0 10  0.0000000  0  7G15G17G19G13G12G06G24
  -7377650.81948  -5632867.92047  23182831.6754   23182832.8834   23182831.532
        49.0004         44.0004
 -13928481.15748 -10796362.66647  22256318.8674   22256320.9434   22256318.530
        52.0004         47.0004
 -22458381.57849 -17421822.02448  20594493.0334   20594493.5704   20594493.942
        55.0004         50.0004
  -4461038.43947  -3189488.46846  23986547.9284   23986549.6494   23986547.943
        42.0004         38.0004
 -15660769.74848 -12114297.78947  21732528.8224   21732528.5504   21732528.278
        51.0004         46.0004
  -6208060.18947  -4769575.10447  23123878.0044   23123883.9284   23123878.267
        47.0004         42.0004
 -21583119.22549 -16763645.03548  20605848.2874   20605852.0354   20605848.226
        57.0004         52.0004
 17 10 13  0 10 30.0000000  0  7G15G17G19G13G12G06G24
  -7289394.55948  -5564096.81947  23199625.9164   23199627.4564   23199625.502
        49.0004         44.0004
 -13858291.03548 -10741669.07047  22269675.9614   22269676.6974   22269675.548
        52.0004         47.0004
 -22427853.67849 -17398034.04748  20600302.7254   20600303.1344   20600303.838
        55.0004         50.0004
  -4347232.51447  -3100808.51946  24008204.0124   24008206.3744   24008203.429
        42.0004         37.0004
 -15728836.79248 -12167337.04247  21719575.5914   21719575.8194   21719575.011
        51.0004         46.0004
  -6289028.27447  -4832667.11947  23108471.5794   23108476.0754   23108471.540
        47.0004         42.0004
 -21618883.33249 -16791513.17448  20599042.3854   20599046.3104   20599041.867
        57.0004         52.0004
 17 10 13  0 11  0.0000000  0  7G15G17G19G13G12G06G24
  -7200899.94448  -5495139.99647  23216466.4304   23216468.4614   23216466.021
        49.0004         44.0004
 -13787766.05448 -10686714.52947  22283095.9594   22283097.1494   22283095.379
        52.0004         47.0004
 -22396724.51149 -17373777.54848  20606226.4274   20606226.8694   20606227.658
        55.0004         50.0004
  -4233355.20147  -3012072.96846  24029874.7314   24029877.1214   24029875.035
        42.0004         37.0004
 -15796668.23548 -12220192.72347  21706667.3024   21706668.8584   21706667.272
        51.0004         47.0004
  -6369696.78947  -4895525.68647  23093120.0994   23093123.8784   23093119.547
        47.0004         42.0004
 -21654198.34449 -16819031.36948  20592322.3464   20592326.0904   20592322.041
        57.0004         52.0004
 17 10 13  0 11 30.0000000  0  7G15G17G19G13G12G06G24
  -7112168.74148  -5425998.81047  23233351.3054   23233353.6364   23233350.805
        49.0004         44.0004
 -13716907.77948 -10631500.28947  22296580.2894   22296581.1524   22296579.828
        51.0004         47.0004
 -22364994.52049 -17349052.87448  20612264.2264   20612264.5494   20612264.760
        55.0004         50.0004
  -4119408.93447  -2923283.69146  24051558.0204   24051559.7684   24051558.597
        42.0004         38.0004
 -15864262.68348 -12272863.71347  21693805.1094   21693805.1694   21693805.568
        51.0004         47.0004
  -6450061.69247  -4958147.69047  23077827.0884   23077831.5454   23077825.901
        47.0004         42.0004
 -21689061.11949 -16846197.16948  20585688.3134   20585691.7484   20585688.147
        57.0004         52.0004
 17 10 13  0 12  0.0000000  0  7G15G17G19G13G12G06G24
  -7023206.28248  -5356677.42247  23250280.3544   23250282.4554   23250280.422
        49.0004         44.0004
 -13645720.25548 -10576029.48547  22310126.8594   22310128.3444   22310127.114
        52.0004         47.0004
 -22332667.56349 -17323863.03348  20618415.5284   20618416.4024   20618416.485
        55.0004         50.0004
  -4005398.26647  -2834444.21746  24073253.4794   24073254.8744   24073253.124
        42.0004         38.0004
 -15931621.37948 -12325350.99747  21680987.3024   21680987.6644   21680987.257
        51.0004         47.0004
  -6530121.94547  -5020532.30147  23062591.9774   23062596.3284   23062591.869
        47.0004         42.0004
 -21723472.47049 -16873011.21048  20579139.8074   20579143.4374   20579139.338
        57.0004         52.0004
 17 10 13  0 12 30.0000000  0  7G15G17G19G13G12G06G24
  -6934013.40748  -5287176.48347  23267253.0064   23267256.4014   23267252.561
        49.0004         44.0004
 -13574204.14148 -10520302.64047  22323736.2804   22323737.2324   22323736.335
        52.0004         47.0004
 -22299743.68949 -17298208.05848  20624681.1724   20624682.1134   20624682.160
        55.0004         50.0004
  -3891324.76847  -2745555.76546  24094961.1494   24094961.9564   24094959.694
        42.0004         38.0004
 -15998742.86448 -12377653.44547  21668214.1394   21668214.5534   21668214.036
        51.0004         47.0004
  -6609872.80547  -5082675.80547  23047415.4464   23047421.4084   23047415.005
        47.0004         43.0004
 -21757428.81549 -16899470.70748  20572677.8064   20572681.9204   20572677.783
        57.0004         52.0004
 17 10 13  0 13  0.0000000  0  7G15G17G19G13G12G06G24
  -6844593.40548  -5217498.58347  23284268.9394   23284271.2764   23284269.036
        48.0004         44.0004
 -13502361.88648 -10464321.66847  22337407.4654   22337408.1324   22337406.837
        52.0004         47.0004
 -22266224.96449 -17272089.56548  20631059.0094   20631060.1504   20631059.775
        55.0004         50.0004
  -3777191.36047  -2656620.63046  24116678.4844   24116680.4294   24116679.879
        42.0004         38.0004
 -16065626.01448 -12429770.17547  21655486.4414   21655487.5264   21655486.864
        51.0004         47.0004
  -6689311.42847  -5144576.02347  23032298.4924   23032303.3644   23032298.171
        47.0004         43.0004
 -21790929.16449 -16925574.87848  20566302.9664   20566307.2204   20566303.061
        57.0004         52.0004
 17 10 13  0 13 30.0000000  0  7G15G17G19G13G12G06G24
  -6754949.99948  -5147646.58147  23301326.8774   23301328.3604   23301327.353
        49.0004         44.0004
 -13430196.14548 -10408088.60847  22351140.3244   22351139.9104   22351140.355
        51.0004         47.0004
 -22232113.33549 -17245509.08248  20637550.6634   20637550.8214   20637551.658
        55.0004         50.0004
  -3663001.04747  -2567641.18846  24138409.5554   24138409.0754   24138410.061
        42.0004         38.0004
 -16132271.14448 -12481701.45847  21642804.6324   21642805.1764   21642804.726
        51.0004         47.0004
  -6768435.11248  -5206230.82447  23017243.2184   23017248.1964   23017243.231
        48.0004         43.0004
 -21823972.02349 -16951322.56548  20560015.0274   20560018.7344   20560015.104
        57.0004         52.0004
 17 10 13  0 14  0.0000000  0  7G15G17G19G13G12G06G24
  -6665085.54648  -5077622.35147  23318428.8564   23318428.8914   23318428.540
        48.0004         44.0004
 -13357709.50148 -10351605.51047  22364932.9314   22364934.7664   22364932.623
        51.0004         47.0004
 -22197410.77549 -17218468.11448  20644154.4144   20644154.1474   20644155.591
        55.0004         50.0004
  -3548757.09247  -2478619.93946  24160149.3974   24160151.4734   24160148.381
        42.0004         38.0004
 -16198678.19948 -12533447.21247  21630168.2264   21630168.6364   21630167.997
        52.0004         47.0004
  -6847241.13647  -5267638.09747  23002246.4034   23002251.4594   23002245.587
        47.0004         43.0004
 -21856556.72749 -16976713.24748  20553814.7704   20553818.5294   20553814.754
        57.0004         52.0004
 17 10 13  0 14 30.0000000  0  7G15G17G19G13G12G06G24
  -6575002.52248  -5007427.79947  23335570.8274   23335572.2614   23335570.052
        48.0004         44.0004
 -13284903.11748 -10294873.27447  22378787.7554   22378789.3144   22378787.496
        51.0004         47.0004
 -22162118.56849 -17190967.68848  20650870.3514   20650870.4994   20650871.060
        55.0004         50.0004
  -3434461.44547  -2389558.38846  24181899.0024   24181900.8114   24181898.748
        42.0004         37.0004
 -16264845.69348 -12585006.29647  21617576.2234   21617578.0124   21617576.415
        52.0004         47.0004
  -6925725.54147  -5328794.77147  22987311.6854   22987315.4024   22987312.328
        47.0004         43.0004
 -21888680.58349 -17001744.82648  20547701.6884   20547705.5674   20547701.372
        57.0004         52.0004
 17 10 13  0 15  0.0000000  0  7G15G17G19G13G12G06G24
  -6484701.58848  -4937063.44647  23352754.9934   23352754.8194   23352755.241
        48.0004         44.0004
 -13211777.36148 -10237892.16747  22392703.1264   22392704.8504   22392703.133
        51.0004         47.0004
 -22126235.88449 -17163007.16048  20657698.3354   20657698.8654   20657699.410
        55.0004         50.0004
  -3320114.41747  -2300456.82346  24203656.7994   24203658.0084   24203657.649
        42.0004         37.0004
 -16330771.39848 -12636376.95947  21605030.4214   21605033.2074   21605030.661
        52.0004         47.0004
  -7003883.08947  -5389696.74347  22972437.2604   22972442.1974   22972438.196
        47.0004         42.0004
 -21920339.84549 -17026414.38648  20541676.7734   20541681.2734   20541676.596
        57.0004         52.0004
 17 10 13  0 15 30.0000000  0  8G15G17G02G19G13G12G06G24
  -6394190.25648  -4866535.16047  23369979.2034   23369979.3244   23369977.385
        48.0004         43.0004
 -13138338.91048 -10180667.39847  22406677.9094   22406679.3664   22406677.991
        52.0004         47.0004
                                                                  24306837.508

 -22089769.29149 -17134591.62948  20664637.8314   20664638.2414   20664638.995
        55.0004         50.0004
  -3205723.66146  -2211321.17246  24225427.0584   24225426.7014   24225425.500
        41.0004         37.0004
 -16396459.13248 -12687562.20547  21592530.7564   21592532.6994   21592531.107
        52.0004         47.0004
  -7081715.40547  -5450345.30547  22957626.0824   22957631.8274   22957626.384
        47.0004         43.0004
 -21951537.64849 -17050724.36848  20535740.6604   20535744.3424   20535740.255
        57.0004         52.0004
 17 10 13  0 16  0.0000000  0  8G15G17G02G19G13G12G06G24
  -6303463.86948  -4795839.27947  23387243.2964   23387244.0284   23387242.850
        48.0004         43.0004
 -13064582.01648 -10123194.49347  22420713.2934   22420714.8654   22420713.545
        51.0004         47.0004
   -985842.53249   -699044.12646  24289152.7764   24289151.6514   24289153.335
        55.0004         37.0004
 -22052713.03649 -17105716.61748  20671689.8404   20671689.9244   20671690.772
        55.0004         50.0004
  -3091284.61446  -2122147.89446  24247202.3194   24247204.6774   24247201.762
        41.0004         37.0004
 -16461900.23348 -12738555.28047  21580078.8524   21580079.3454   21580078.255
        52.0004         47.0004
  -7159211.77947  -5510732.06247  22942880.1824   22942884.8444   22942879.911
        47.0004         43.0004
 -21982265.10449 -17074667.84448  20529893.1824   20529897.1674   20529892.670
        57.0004         52.0004
 17 10 13  0 16 30.0000000  0  8G15G17G02G19G13G12G06G24
  -6212548.17948  -4724995.86347  23404544.6314   23404545.9634   23404543.832
        48.0004         44.0004
 -12990532.34248 -10065493.45247  22434804.5124   22434805.9054   22434804.178
        51.0004         47.0004
  -1078757.97848   -771445.75546  24271471.8524   24271471.1264   24271471.551
        49.0004         38.0004
 -22015091.84749 -17076401.40648  20678848.6004   20678849.0694   20678849.359
        55.0004         50.0004
  -2976822.99446  -2032957.02546  24268985.3224   24268986.9344   24268985.302
        41.0004         37.0004
 -16527117.85748 -12789374.20947  21567668.0484   21567668.0484   21567667.976
        52.0004         47.0004
  -7236392.26948  -5570872.68947  22928193.3304   22928197.8554   22928193.396
        48.0004         44.0004
 -22012543.39649 -17098261.32448  20524131.2564   20524135.1574   20524130.844
        57.0004         52.0004
 17 10 13  0 17  0.0000000  0  8G15G17G02G19G13G12G06G24
  -6121416.77748  -4653984.39147  23421885.6884   23421887.5804   23421884.289
        48.0004         43.0004
 -12916162.98648 -10007543.29447  22448956.4264   22448957.9284   22448955.947
        51.0004         46.0004
  -1171627.76847   -843811.83946  24253797.9914   24253799.2094   24253798.360
        45.0004         38.0004
 -21976878.41849 -17046624.70448  20686120.5714   20686120.4874   20686121.558
        55.0004         50.0004
  -2862312.07847  -1943727.73646  24290775.8264   24290778.1404   24290776.381
        42.0004         37.0004
 -16592082.37748 -12839995.90947  21555305.7874   21555306.3104   21555305.615
        52.0004         47.0004
  -7313224.41248  -5630741.87447  22913571.8204   22913578.2474   22913572.596
        48.0004         43.0004
 -22042341.77149 -17121480.83448  20518460.8534   20518464.6524   20518460.953
        57.0004         52.0004
 17 10 13  0 17 30.0000000  0  8G15G17G02G19G13G12G06G24
  -6030085.24848  -4582816.99647  23439265.6344   23439267.0014   23439265.758
        48.0004         43.0004
 -12841488.48948  -9949355.36847  22463167.0024   22463168.1644   22463167.279
        51.0004         47.0004
  -1264461.72647   -916150.01346  24236132.3814   24236132.2304   24236133.377
        43.0004         38.0004
 -21938087.13349 -17016397.72248  20693502.7824   20693501.9394   20693503.464
        55.0004         50.0004
  -2747767.24547  -1854472.02846  24312573.6874   24312575.0684   24312572.590
        42.0004         37.0004
 -16656805.24648 -12890429.30747  21542988.6684   21542989.6844   21542988.604
        52.0004         47.0004
  -7389717.74748  -5690347.05047  22899016.1834   22899020.9014   22899015.652
        48.0004         43.0004
 -22071671.85049 -17144335.44748  20512879.5404   20512883.7224   20512879.517
        57.0004         52.0004
 17 10 13  0 18  0.0000000  0  8G15G17G02G19G13G12G06G24
  -5938556.59248  -4511495.99047  23456683.1314   23456683.9004   23456683.126
        48.0004         43.0004
 -12766511.64748  -9890931.84447  22477434.5714   22477435.3274   22477434.061
        51.0004         47.0004
  -1357257.70847   -988458.57946  24218474.2664   24218472.7234   24218472.672
        43.0004         38.0004
 -21898720.29649 -16985722.25348  20700993.7694   20700993.8844   20700994.864
        55.0004         50.0004
  -2633191.90547  -1765192.54946  24334376.7624   24334378.9264   24334375.913
        42.0004         37.0004
 -16721286.70548 -12940674.60147  21530718.2104   21530719.4524   21530718.383
        52.0004         47.0004
  -7465869.75148  -5749686.26647  22884525.1604   22884529.8244   22884525.124
        48.0004         43.0004
 -22100531.87649 -17166823.78548  20507387.7534   20507392.0874   20507387.418
        57.0004         52.0004
 17 10 13  0 18 30.0000000  0  8G15G17G02G19G13G12G06G24
  -5846831.65447  -4440022.02847  23474135.8494   23474138.5704   23474136.721
        47.0004         42.0004
 -12691232.34648  -9832272.64447  22491759.5394   22491760.8324   22491759.273
        51.0004         46.0004
  -1450010.61147  -1060733.59346  24200824.1824   24200824.1314   24200824.969
        43.0004         38.0004
 -21858777.42449 -16954597.93848  20708594.4174   20708594.6074   20708595.218
        55.0004         50.0004
  -2518586.26747  -1675889.44546  24356185.1864   24356185.1284   24356184.257
        42.0004         37.0004
 -16785524.01548 -12990729.65447  21518494.6364   21518495.7654   21518494.309
        52.0004         47.0004
  -7541675.10348  -5808755.34147  22870100.7494   22870104.2864   22870099.822
        48.0004         43.0004
 -22128918.43149 -17188943.18048  20501985.7194   20501989.9544   20501985.492
        57.0004         52.0004
 17 10 13  0 19  0.0000000  0  8G15G17G02G19G13G12G06G24
  -5754913.53847  -4368397.53047  23491627.8014   23491630.1644   23491627.344
        47.0004         42.0004
 -12615653.01248  -9773379.66447  22506142.1084   22506142.9224   22506141.801
        51.0004         46.0004
  -1542718.13347  -1132973.24746  24183182.1594   24183182.6344   24183182.536
        42.0004         38.0004
 -21818260.68049 -16923026.45548  20716304.7434   20716304.8014   20716305.713
        55.0004         50.0004
  -2403953.61946  -1586565.29446  24377996.7484   24378000.3404   24377997.469
        41.0004         37.0004
 -16849517.08448 -13040594.39547  21506317.1014   21506318.6164   21506316.945
        52.0004         47.0004
  -7617130.99448  -5867552.12147  22855741.2534   22855745.3984   22855740.690
        48.0004         43.0004
 -22156830.18449 -17210692.60448  20496674.3654   20496678.4784   20496674.323
        57.0004         52.0004
 17 10 13  0 19 30.0000000  0  8G15G17G02G19G13G12G06G24
  -5662809.62247  -4296628.24047  23509154.7894   23509158.2704   23509154.291
        47.0004         43.0004
 -12539780.01148  -9714257.83747  22520580.4134   22520580.4404   22520579.791
        51.0004         46.0004
  -1635381.83947  -1205178.73146  24165548.8944   24165548.2044   24165550.969
        43.0004         38.0004
 -21777176.33949 -16891012.67948  20724122.5374   20724122.6124   20724123.529
        55.0004         50.0004
  -2289300.84646  -1497225.47346  24399816.5264   24399817.0154   24399816.402
        41.0004         37.0004
 -16913269.35848 -13090271.50647  21494184.8064   21494185.9114   21494186.049
        52.0004         47.0004
  -7692238.79248  -5926077.66247  22841447.3414   22841453.9594   22841447.695
        48.0004         44.0004
 -22184270.07149 -17232074.33248  20491452.6694   20491456.8004   20491452.726
        57.0004         52.0004
 17 10 13  0 20  0.0000000  0  8G15G17G02G19G13G12G06G24
  -5570517.02847  -4224711.93447  23526719.5834   23526719.8784   23526718.654
        47.0004         43.0004
 -12463610.26348  -9654904.78247  22535074.7564   22535075.8924   22535074.224
        51.0004         46.0004
  -1727993.87847  -1277343.94746  24147927.4094   24147925.0834   24147927.334
        43.0004         38.0004
 -21735521.08349 -16858554.02948  20732049.0354   20732049.1604   20732050.184
        55.0004         50.0004
  -2174625.21346  -1407867.84546  24421637.2704   24421638.3484   24421637.226
        41.0004         37.0004
 -16976775.09848 -13139756.50047  21482100.2444   21482101.7194   21482099.920
        52.0004         47.0004
  -7766990.17748  -5984325.47147  22827224.2434   22827229.1854   22827224.425
        48.0004         44.0004
 -22211231.48749 -17253083.23448  20486322.2224   20486325.9774   20486322.044
        57.0004         52.0004
 17 10 13  0 20 30.0000000  0  8G15G17G02G19G13G12G06G24
  -5478041.14247  -4152652.82147  23544315.7944   23544319.0844   23544315.718
        47.0004         43.0004
 -12387148.60448  -9595324.26647  22549625.6674   22549626.2494   22549625.181
        51.0004         47.0004
  -1820553.97847  -1349468.69946  24130312.3904   24130309.9884   24130312.699
        43.0004         38.0004
 -21693299.45049 -16825654.05348  20740083.5224   20740083.7834   20740083.887
        54.0004         50.0004
  -2059932.13146  -1318496.59746  24443463.2994   24443463.9654   24443462.053
        41.0004         36.0004
 -17040036.79048 -13189051.32647  21470061.9264   21470063.1524   21470062.184
        52.0004         47.0004
  -7841384.57748  -6042295.12447  22813066.4694   22813070.6584   22813067.588
        49.0004         44.0004
 -22237715.57549 -17273720.19348  20481282.6394   20481286.5174   20481282.137
        57.0004         52.0004
 17 10 13  0 21  0.0000000  0  8G15G17G02G19G13G12G06G24
  -5385386.62347  -4080454.52047  23561947.8094   23561949.2074   23561947.703
        47.0004         42.0004
 -12310398.89748  -9535519.30647  22564230.7404   22564230.5664   22564230.837
        51.0004         47.0004
  -1913060.97147  -1421552.05746  24112708.1664   24112707.2874   24112708.360
        43.0004         39.0004
 -21650515.04349 -16792315.55448  20748224.8144   20748225.8014   20748225.836
        54.0004         50.0004
  -1945226.06546  -1229115.23146  24465291.3494   24465293.1364   24465290.621
        41.0004         36.0004
 -17103055.15548 -13238156.52647  21458070.1644   21458071.9044   21458070.297
        52.0004         47.0004
  -7915420.63948  -6099985.54247  22798977.4174   22798982.0464   22798976.386
        48.0004         43.0004
 -22263722.31349 -17293985.18848  20476333.6124   20476337.4374   20476333.162
        57.0004         52.0004
 17 10 13  0 21 30.0000000  0  9G15G17G25G02G19G13G12G06G24
  -5292552.94247  -4008116.59147  23579612.6184   23579614.4854   23579610.162
        47.0004         42.0004
 -12233359.46448  -9475488.56947  22578890.9434   22578890.8214   22578891.072
        51.0004         47.0004
                                                                  24813028.645

  -2005508.60947  -1493589.18746  24095116.6794   24095114.1864   24095117.711
        43.0004         39.0004
 -21607165.80449 -16758536.92448  20756474.4464   20756474.9564   20756474.790
        54.0004         50.0004
  -1830506.51946  -1139723.39146  24487121.6424   24487124.7564   24487121.820
        41.0004         36.0004
 -17165826.00648 -13287068.85947  21446125.0964   21446126.7954   21446124.409
        52.0004         47.0004
  -7989091.81948  -6157391.63847  22784959.1544   22784964.1694   22784959.453
        48.0004         44.0004
 -22289246.90849 -17313874.48748  20471476.5804   20471480.1914   20471476.597
        57.0004         52.0004
 17 10 13  0 22  0.0000000  0  9G15G17G25G02G19G13G12G06G24
  -5199546.23547  -3935643.85346  23597308.8454   23597313.5864   23597308.272
        46.0004         41.0004
 -12156036.42148  -9415236.84947  22593604.1224   22593604.6214   22593603.789
        51.0004         46.0004
   -739110.29347   -512953.09846  24795361.8884   24795367.9124   24795363.038
        46.0004         38.0004
  -2097897.58547  -1565580.61446  24077534.1174   24077535.0014   24077535.660
        44.0004         39.0004
 -21563257.63449 -16724322.76148  20764829.8094   20764829.9974   20764830.915
        54.0004         50.0004
  -1715778.96846  -1050325.30446  24508953.6384   24508955.3384   24508954.377
        41.0004         37.0004
 -17228352.01848 -13335790.41447  21434226.6594   21434228.1494   21434226.984
        52.0004         47.0004
  -8062398.58248  -6214513.75947  22771009.1274   22771014.8474   22771008.227
        48.0004         44.0004
 -22314291.47649 -17333389.73848  20466710.2544   20466714.7464   20466709.888
        57.0004         52.0004
 17 10 13  0 22 30.0000000  0  9G15G17G25G02G19G13G12G06G24
  -5106366.33747  -3863036.13147  23615043.4774   23615045.3784   23615041.860
        46.0004         42.0004
 -12078429.02648  -9354763.54747  22608372.7364   22608373.3724   22608372.474
        51.0004         46.0004
   -831878.16947   -585239.70146  24777706.9054   24777713.9124   24777707.883
        44.0004         38.0004
  -2190222.54347  -1637522.15046  24059965.7064   24059969.2384   24059967.777
        44.0004         40.0004
 -21518789.45049 -16689672.23148  20773291.9844   20773292.0764   20773292.876
        54.0004         50.0004
  -1601043.25746   -960920.86346  24530787.7004   24530790.3864   24530788.046
        41.0004         36.0004
 -17290630.23948 -13384318.89347  21422375.8674   21422377.1934   21422375.899
        52.0004         47.0004
  -8135335.05648  -6271347.36447  22757129.6214   22757136.0224   22757129.533
        48.0004         44.0004
 -22338851.22849 -17352527.21448  20462037.3124   20462041.2364   20462037.176
        57.0004         52.0004
 17 10 13  0 23  0.0000000  0  9G15G17G25G02G19G13G12G06G24
  -5013017.75147  -3790296.97647  23632805.1574   23632807.6944   23632806.416
        46.0004         42.0004
 -12000541.18248  -9294071.72547  22623193.9034   22623193.9454   22623193.373
        50.0004         46.0004
   -924583.27647   -657477.43246  24760065.5224   24760071.7874   24760064.949
        42.0004         37.0004
  -2282482.27547  -1709412.85346  24042410.4934   24042412.4234   24042410.699
        45.0004         40.0004
 -21473765.00549 -16654588.24548  20781859.8804   20781859.9024   20781860.807
        54.0004         50.0004
  -1486304.21846   -871513.82745  24552620.0954   24552623.5834   24552621.015
        40.0004         35.0004
 -17352662.08648 -13432655.39747  21410571.3794   21410572.9054   21410571.632
        52.0004         47.0004
  -8207899.96448  -6327891.42847  22743320.8374   22743325.4414   22743320.870
        48.0004         44.0004
 -22362926.86249 -17371287.44848  20457455.9364   20457459.8674   20457455.813
        57.0004         52.0004
 17 10 13  0 23 30.0000000  0  9G15G17G25G02G19G13G12G06G24
  -4919503.86547  -3717429.04047  23650601.2614   23650601.6444   23650601.944
        46.0004         42.0004
 -11922375.48148  -9233163.37647  22638067.7094   22638068.6874   22638067.178
        50.0004         46.0004
  -1017225.47747   -729666.14546  24742436.5664   24742441.1874   24742437.658
        42.0004         37.0004
  -2374674.47047  -1781250.93146  24024865.9354   24024866.7654   24024867.684
        45.0004         40.0004
 -21428186.99849 -16619072.91448  20790532.2914   20790533.0694   20790533.124
        54.0004         49.0004
  -1371564.47246   -782106.22946  24574455.4014   24574455.5254   24574456.351
        40.0004         36.0004
 -17414447.16748 -13480799.63547  21398814.2334   21398814.7884   21398813.934
        52.0004         47.0004
  -8280090.87848  -6384144.06247  22729584.6954   22729588.4344   22729583.347
        48.0004         44.0004
 -22386517.77449 -17389669.98048  20452966.3344   20452970.3914   20452966.143
        57.0004         52.0004
 17 10 13  0 24  0.0000000  0  9G15G17G25G02G19G13G12G06G24
  -4825826.29647  -3644433.55047  23668427.8784   23668430.3214   23668428.031
        47.0004         42.0004
 -11843932.14748  -9172038.69747  22652995.1344   22652997.0324   22652994.605
        50.0004         46.0004
  -1109802.70647   -801804.19746  24724821.0454   24724825.7574   24724822.035
        42.0004         37.0004
  -2466794.84447  -1853033.05146  24007334.6994   24007336.4924   24007335.253
        44.0004         39.0004
 -21382055.79449 -16583126.51248  20799310.8324   20799311.3484   20799311.741
        54.0004         49.0004
  -1256825.19846   -692698.99645  24596288.8464   24596288.0364   24596289.164
        40.0004         35.0004
 -17475983.25748 -13528749.84147  21387104.6964   21387105.0074   21387104.684
        52.0004         47.0004
  -8351903.20348  -6440101.68147  22715918.4774   22715921.8934   22715918.101
        48.0004         44.0004
 -22409620.70749 -17407672.26248  20448570.4044   20448574.4294   20448570.174
        57.0004         52.0004
 17 10 13  0 24 30.0000000  0  9G15G17G25G02G19G13G12G06G24
  -4731990.59347  -3571314.84647  23686284.3814   23686285.7644   23686283.911
        47.0004         42.0004
 -11765216.69148  -9110701.98847  22667973.5314   22667975.3024   22667973.606
        50.0004         45.0004
  -1202317.44547   -873893.58946  24707216.4884   24707222.8744   24707217.930
        42.0004         38.0004
  -2558844.00347  -1924759.69346  23989820.4924   23989819.4254   23989820.320
        44.0004         40.0004
 -21335376.47049 -16546753.00948  20808193.5694   20808194.0264   20808194.380
        54.0004         49.0004
  -1142092.65946   -603297.01645  24618120.0414   24618121.4034   24618121.085
        40.0004         35.0004
 -17537272.85548 -13576507.97348  21375441.7784   21375442.8744   21375441.105
        52.0004         48.0004
  -8423337.08648  -6495764.45547  22702323.8674   22702329.6204   22702324.078
        49.0004         44.0004
 -22432237.32349 -17425295.61848  20444266.5884   20444270.1424   20444266.202
        57.0004         52.0004
 17 10 13  0 25  0.0000000  0  9G15G17G25G02G19G13G12G06G24
  -4637995.98347  -3498072.28747  23704171.0724   23704172.7814   23704170.533
        47.0004         42.0004
 -11686227.93648  -9049152.29447  22683005.4684   22683006.6054   22683005.693
        50.0004         46.0004
  -1294765.52347   -945931.03746  24689624.8444   24689629.8634   24689625.881
        43.0004         38.0004
  -2650815.33947  -1996425.65346  23972318.6114   23972316.6294   23972318.205
        44.0004         40.0004
 -21288147.32349 -16509951.06948  20817181.3584   20817181.9794   20817182.316
        54.0004         49.0004
  -1027365.53846   -513899.22045  24639955.3164   24639955.1844   24639952.725
        39.0004         35.0004
 -17598312.23848 -13624071.13448  21363825.8564   21363827.3054   21363826.152
        52.0004         48.0004
  -8494385.99648  -6551127.20047  22688804.0204   22688809.3384   22688804.880
        49.0004         44.0004
 -22454363.02149 -17442536.42948  20440055.7664   20440060.0994   20440055.564
        57.0004         52.0004
 17 10 13  0 25 30.0000000  0  9G15G17G25G02G19G13G12G06G24
  -4543870.72847  -3424727.95347  23722081.5904   23722085.1164   23722081.628
        47.0004         42.0004
 -11606993.34348  -8987411.05547  22698082.7174   22698084.0714   22698083.186
        50.0004         45.0004
  -1387171.54747  -1017935.70846  24672039.9134   24672043.3374   24672040.215
        43.0004         38.0004
  -2742731.33647  -2068048.50846  23954827.3344   23954825.2844   23954828.231
        44.0004         40.0004
 -21240396.15349 -16472742.36648  20826268.0064   20826268.3784   20826268.996
        54.0004         50.0004
   -912671.80546   -424527.47745  24661777.6184   24661779.9194   24661777.385
        40.0004         35.0004
 -17659125.85348 -13671458.38348  21352253.7024   21352255.0474   21352253.434
        52.0004         48.0004
  -8565072.14548  -6606207.29647  22675353.3364   22675359.0224   22675354.096
        49.0004         45.0004
 -22476021.40349 -17459413.08748  20435934.2854   20435938.6404   20435933.536
        57.0004         52.0004
 17 10 13  0 26  0.0000000  0  9G15G17G25G02G19G13G12G06G24
  -4449568.98547  -3351246.08447  23740028.0334   23740030.5804   23740027.509
        47.0004         42.0004
 -11527466.09248  -8925441.76547  22713216.8644   22713217.3154   22713217.013
        50.0004         45.0004
  -1479486.47647  -1089869.37446  24654471.9154   24654477.4814   24654473.909
        43.0004         38.0004
  -2834540.71747  -2139588.27046  23937357.3284   23937356.5004   23937357.655
        44.0004         40.0004
 -21192076.03849 -16435090.32848  20835462.8444   20835463.6124   20835464.086
        54.0004         49.0004
   -797965.68946   -335146.09046  24683605.5654   24683609.1694   24683604.807
        40.0004         36.0004
 -17719665.03748 -13718631.79347  21340733.2604   21340734.1184   21340733.382
        52.0004         47.0004
  -8635344.19248  -6660964.71847  22661980.7914   22661986.3534   22661981.031
        49.0004         45.0004
 -22497162.77349 -17475886.88448  20431911.4464   20431915.4114   20431911.426
        57.0004         52.0004
 17 10 13  0 26 30.0000000  0  9G15G17G25G02G19G13G12G06G24
  -4355117.65847  -3277647.65747  23758001.4184   23758002.9224   23758001.011
        47.0004         42.0004
 -11447672.95448  -8863265.29647  22728401.2424   22728401.1824   22728400.875
        50.0004         45.0004
  -1571733.90047  -1161750.47046  24636917.0914   24636924.3214   24636918.120
        43.0004         38.0004
  -2926265.16447  -2211061.85546  23919900.6644   23919901.2494   23919901.866
        45.0004         40.0004
 -21143213.43849 -16397015.57248  20844761.2034   20844761.8714   20844762.252
        54.0004         49.0004
   -683273.89346   -245775.86746  24705431.2774   24705435.6834   24705431.362
        41.0004         36.0004
 -17779952.64248 -13765609.15147  21329260.9204   21329262.0164   21329261.071
        52.0004         47.0004
  -8705223.42848  -6715416.04247  22648684.3644   22648689.1874   22648684.156
        49.0004         44.0004
 -22517810.21349 -17491975.79948  20427982.5474   20427986.0234   20427982.148
        57.0004         52.0004
 17 10 13  0 27  0.0000000  0  9G15G17G25G02G19G13G12G06G24
  -4260526.84847  -3203940.54947  23776000.5864   23776004.2194   23776000.950
        47.0004         42.0004
 -11367622.77248  -8800888.51547  22743634.7044   22743635.1544   22743633.861
        50.0004         45.0004
  -1663920.07847  -1233583.84446  24619376.1344   24619381.9694   24619375.376
        43.0004         38.0004
  -3017908.63547  -2282472.34046  23902461.8674   23902462.8594   23902463.100
        45.0004         40.0004
 -21093817.39849 -16358525.14748  20854161.2704   20854161.7674   20854162.062
        54.0004         49.0004
   -568606.18846   -156424.39946  24727252.2514   24727255.6494   24727253.012
        41.0004         36.0004
 -17839995.38948 -13812395.70847  21317835.3794   21317836.5064   21317835.131
        52.0004         47.0004
  -8774713.71648  -6769564.30447  22635460.0344   22635465.2584   22635460.451
        49.0004         44.0004
 -22537968.76549 -17507683.76648  20424146.6934   20424150.2404   20424146.646
        57.0004         52.0004
 17 10 13  0 27 30.0000000  0  9G15G17G25G02G19G13G12G06G24
  -4165788.00147  -3130118.07647  23794028.6434   23794031.6514   23794027.914
        47.0004         42.0004
 -11287306.50848  -8738304.41447  22758918.0464   22758919.0274   22758917.328
        50.0004         45.0004
  -1756033.32247  -1305360.37846  24601847.5654   24601853.3114   24601848.280
        43.0004         38.0004
  -3109457.12247  -2353808.83746  23885042.3614   23885041.2694   23885042.555
        45.0004         41.0004
 -21043878.98249 -16319612.09748  20863664.4004   20863664.6354   20863665.264
        54.0004         50.0004
   -453953.51646    -67084.66046  24749070.6634   24749073.9854   24749071.112
        41.0004         36.0004
 -17899781.99448 -13858982.66548  21306457.8684   21306459.4784   21306458.315
        52.0004         48.0004
  -8843801.02748  -6823398.55347  22622313.9804   22622318.8704   22622312.739
        49.0004         44.0004
 -22557626.04549 -17523001.13048  20420405.8884   20420409.5384   20420405.375
        57.0004         52.0004
 17 10 13  0 28  0.0000000  0  9G15G17G25G02G19G13G12G06G24
  -4070906.91847  -3056184.78347  23812084.3214   23812085.3574   23812084.461
        47.0004         42.0004
 -11206729.77348  -8675517.34147  22774251.0464   22774251.7814   22774250.468
        50.0004         45.0004
  -1848076.24247  -1377082.09946  24584332.3674   24584336.3654   24584334.237
        43.0004         38.0004
  -3200911.10847  -2425071.68846  23867637.8374   23867638.6364   23867639.029
        45.0004         40.0004
 -20993403.49049 -16280280.53748  20873269.0524   20873269.2834   20873270.203
        54.0004         49.0004
   -339322.20346     22238.42146  24770882.3834   24770886.4894   24770884.680
        41.0004         36.0004
 -17959315.06348 -13905372.07548  21295129.5264   21295130.6484   21295129.452
        52.0004         48.0004
  -8912485.70948  -6876919.05347  22609243.5004   22609247.1724   22609242.591
        49.0004         44.0004
 -22576784.03949 -17537929.44248  20416759.8224   20416763.5744   20416759.184
        57.0004         52.0004
 17 10 13  0 28 30.0000000  0  9G15G17G25G02G19G13G12G06G24
  -3975895.19647  -2982149.67647  23830164.4684   23830166.5594   23830163.589
        47.0004         42.0004
 -11125902.69848  -8612535.20347  22789631.8324   22789632.9914   22789631.771
        50.0004         46.0004
  -1940056.45547  -1448754.97346  24566828.0604   24566831.6034   24566830.872
        43.0004         38.0004
  -3292276.01047  -2496265.11746  23850251.8504   23850252.1434   23850252.792
        45.0004         40.0004
 -20942401.22449 -16240538.50448  20882974.4224   20882974.8284   20882975.176
        54.0004         49.0004
   -224722.75046    111536.71346  24792692.5224   24792696.2784   24792691.913
        41.0004         36.0004
 -18018601.62548 -13951569.40448  21283847.6424   21283848.7394   21283847.417
        52.0004         48.0004
  -8980773.07948  -6930129.97747  22596248.1494   22596253.2314   22596247.061
        49.0004         44.0004
 -22595450.51949 -17552474.75348  20413208.0864   20413211.8404   20413208.307
        57.0004         52.0004
 17 10 13  0 29  0.0000000  0  9G15G17G25G02G19G13G12G06G24
  -3880748.70047  -2908009.56247  23848270.6064   23848273.0094   23848269.720
        46.0004         42.0004
 -11044821.35148  -8549354.93347  22805061.5454   22805062.1394   22805061.493
        50.0004         46.0004
  -2031967.10447  -1520373.64246  24549339.2274   24549343.1014   24549338.998
        42.0004         38.0004
  -3383542.72647  -2567382.05646  23832884.3594   23832884.7134   23832885.608
        45.0004         40.0004
 -20890868.11249 -16200382.83448  20892780.8314   20892781.2964   20892781.539
        54.0004         49.0004
   -110151.66746    200812.87146  24814493.2224   24814497.0614   24814492.937
        41.0004         36.0004
 -18077635.10648 -13997569.52548  21272614.0124   21272615.2854   21272613.981
        53.0004         48.0004
  -9048654.02348  -6983024.19547  22583330.7574   22583335.6874   22583330.708
        49.0004         44.0004
 -22613617.39249 -17566630.76448  20409750.8344   20409754.7924   20409750.838
        57.0004         52.0004
 17 10 13  0 29 30.0000000  0  9G15G17G25G02G19G13G12G06G24
  -3785467.02447  -2833764.13247  23866403.1884   23866404.3844   23866401.976
        46.0004         42.0004
 -10963484.22048  -8485975.35447  22820539.4594   22820540.2364   22820539.738
        50.0004         46.0004
  -2123804.11847  -1591934.93846  24531862.4344   24531868.3834   24531863.139
        43.0004         38.0004
  -3474705.64947  -2638418.09746  23815536.8624   23815538.0884   23815537.499
        45.0004         40.0004
 -20838802.87749 -16159812.51248  20902688.0894   20902688.4624   20902688.966
        54.0004         49.0004
      4391.88446    290067.60046  24836289.9494   24836293.6604   24836289.690
        41.0004         36.0004
 -18136411.70348 -14043369.46848  21261429.3504   21261430.0124   21261429.048
        53.0004         48.0004
  -9116122.17648  -7035596.75147  22570492.3134   22570497.0834   22570491.315
        49.0004         44.0004
 -22631279.77449 -17580393.65648  20406389.8424   20406393.9434   20406389.812
        57.0004         52.0004
 17 10 13  0 30  0.0000000  0  9G15G17G25G02G19G13G12G06G24
  -3690061.46147  -2759422.13847  23884557.4524   23884560.3644   23884557.439
        46.0004         42.0004
 -10881902.01348  -8422404.78347  22836064.0974   22836065.1054   22836063.502
        50.0004         46.0004
  -2215575.38147  -1663445.00246  24514400.0674   24514401.9284   24514400.347
        43.0004         38.0004
  -3565770.04547  -2709377.35946  23798208.8634   23798207.8704   23798208.126
        45.0004         41.0004
 -20786216.37849 -16118836.01148  20912695.3874   20912695.4324   20912696.584
        54.0004         49.0004
    118896.66946    379292.12746  24858079.0554   24858084.1764   24858080.543
        41.0004         36.0004
 -18194939.70348 -14088975.70448  21250291.1914   21250292.8884   21250291.070
        53.0004         48.0004
  -9183183.19448  -7087852.08047  22557730.3014   22557735.2754   22557730.514
        49.0004         44.0004
 -22648444.96949 -17593769.13248  20403123.3324   20403127.2044   20403122.843
        57.0004         52.0004
 17 10 13  0 30 30.0000000  0  9G15G17G25G02G19G13G12G06G24
  -3594526.92047  -2684979.64246  23902736.9854   23902738.9944   23902736.303
        46.0004         41.0004
 -10800069.23448  -8358638.97947  22851635.7174   22851636.3914   22851635.836
        50.0004         45.0004
  -2307272.55047  -1734897.28746  24496950.5224   24496954.8144   24496950.906
        43.0004         38.0004
  -3656725.16847  -2780251.48146  23780899.7694   23780899.9794   23780900.959
        45.0004         41.0004
 -20733102.86349 -16077448.84948  20922802.4764   20922803.2634   20922803.167
        54.0004         49.0004
    233368.40946    468490.91746  24879864.4554   24879867.0144   24879862.866
        41.0004         36.0004
 -18253210.02448 -14134381.13648  21239203.7024   21239205.0264   21239203.301
        53.0004         48.0004
  -9249826.40548  -7139781.83647  22545049.0424   22545052.9754   22545049.258
        49.0004         45.0004
 -22665103.76949 -17606750.01948  20399953.2264   20399956.9504   20399953.159
        57.0004         52.0004
 17 10 13  0 31  0.0000000  0  9G15G17G25G02G19G13G12G06G24
  -3498872.83947  -2610443.99946  23920938.0714   23920940.5264   23920938.971
        46.0004         41.0004
 -10717994.57348  -8294684.70847  22867254.5514   22867255.8344   22867254.190
        50.0004         45.0004
  -2398901.38947  -1806296.35046  24479513.5514   24479519.3144   24479514.287
        43.0004         38.0004
  -3747575.09347  -2851043.60046  23763611.7624   23763611.4594   23763613.121
        45.0004         41.0004
 -20679471.17849 -16035657.92448  20933008.1544   20933008.9884   20933009.119
        54.0004         49.0004
    347797.72446    557656.62746  24901639.9114   24901640.7384   24901639.276
        40.0004         36.0004
 -18311228.57548 -14179590.39648  21228162.9194   21228163.9804   21228162.593
        53.0004         48.0004
